,City,Cloudiness,Country,Date,Humidity,Lat,Lng,Max Temp,Wind Speed
0,Rikitea,100,PF,1552594104,100,-23.12,-134.97,75.44,18.75
1,Castro,20,CL,1552590000,59,-42.48,-73.76,62.6,8.05
2,Grand Gaube,20,MU,1552593844,83,-20.01,57.66,77.0,2.24
3,Avarua,64,CK,1552591800,74,-21.21,-159.78,82.4,18.34
4,Tuktoyaktuk,90,CA,1552590000,75,69.44,-133.03,-13.01,21.92
5,Kodiak,90,US,1552594104,98,39.95,-94.76,39.99,20.8
6,Kapaa,75,US,1552594099,65,22.08,-159.32,78.8,9.17
7,Puerto Ayora,0,EC,1552593812,69,-0.74,-90.35,82.4,11.41
8,Natchitoches,90,US,1552593959,38,31.76,-93.09,77.0,12.75
9,Quatre Cocos,20,MU,1552593844,83,-20.21,57.76,77.0,2.24
10,Lavrentiya,68,RU,1552594106,99,65.58,-170.99,20.9,28.03
11,Hilo,90,US,1552594049,73,19.71,-155.08,75.0,3.36
12,Lebu,0,ET,1552594106,69,8.96,38.73,53.12,6.22
13,Araouane,0,ML,1552594067,21,18.9,-3.53,65.36,7.11
14,New Norfolk,75,AU,1552594094,71,-42.78,147.06,55.4,5.82
15,Shimoda,0,JP,1552593911,74,34.7,138.93,37.0,4.0
16,Cape Town,0,ZA,1552593964,68,-33.93,18.42,73.99,9.17
17,Hualmay,12,PE,1552594107,64,-11.1,-77.61,78.95,4.32
18,Poltavka,0,RU,1552594107,88,54.36,71.76,36.02,12.26
19,Punta Arenas,75,CL,1552593793,55,-53.16,-70.91,60.8,17.22
20,Vila Velha,40,BR,1552594091,78,-3.71,-38.6,82.4,6.93
21,Mar del Plata,92,AR,1552594107,94,-46.43,-67.52,55.87,13.38
22,Morros,75,BR,1552593600,78,-2.87,-44.04,82.4,10.29
23,Zhezkazgan,90,KZ,1552590000,93,47.8,67.71,35.6,17.9
24,Adana,40,TR,1552593000,93,37.0,35.33,54.0,4.7
25,Nyimba,48,ZM,1552594108,51,-14.56,30.81,79.72,4.43
26,Kondinskoye,92,RU,1552594108,93,59.65,67.41,28.46,13.82
27,Qaanaaq,24,GL,1552594108,100,77.48,-69.36,-12.09,8.01
28,Talnakh,48,RU,1552594108,86,69.49,88.39,4.16,11.25
29,Buraydah,75,SA,1552590000,55,26.33,43.97,64.4,12.75
30,San Policarpo,0,PH,1552594108,96,12.18,125.51,75.4,6.44
31,Hermanus,0,ZA,1552593794,84,-34.42,19.24,73.99,7.0
32,Bathsheba,40,BB,1552590000,62,13.22,-59.52,84.2,18.34
33,Busselton,0,AU,1552594077,45,-33.64,115.35,64.0,11.81
34,Half Moon Bay,1,US,1552594103,25,37.46,-122.43,66.0,14.99
35,Ormond Beach,1,US,1552594099,57,29.29,-81.06,86.0,12.75
36,Tasiilaq,90,GL,1552589400,85,65.61,-37.64,24.8,4.7
37,Albany,1,US,1552594043,55,42.65,-73.75,57.99,12.75
38,Muros,40,ES,1552594054,75,42.77,-9.06,54.0,5.82
39,Lorengau,24,PG,1552594110,100,-2.02,147.27,82.37,16.06
40,Staroutkinsk,80,RU,1552594110,85,57.23,59.33,25.54,10.8
41,Berlevag,40,NO,1552589400,73,70.86,29.09,24.8,19.46
42,Te Anau,8,NZ,1552594110,92,-45.41,167.72,45.34,3.53
43,Lodja,24,CD,1552594110,84,-3.52,23.6,76.3,0.63
44,Faanui,32,PF,1552594111,100,-16.48,-151.75,82.15,9.01
45,Bredasdorp,64,ZA,1552593794,88,-34.53,20.04,69.8,9.17
46,Mahebourg,20,MU,1552593844,83,-20.41,57.7,77.0,2.24
47,Torres,44,BR,1552593993,92,-29.34,-49.73,74.99,3.98
48,Two Hills,0,CA,1552594111,99,53.71,-111.75,30.04,4.43
49,Narsaq,75,GL,1552589400,73,60.91,-46.05,21.2,8.05
50,Saint-Philippe,90,CA,1552594096,89,45.36,-73.48,48.0,6.93
51,Mataura,0,NZ,1552593609,92,-46.19,168.86,43.0,1.01
52,Goundi,24,TD,1552594112,24,9.36,17.37,80.03,5.44
53,East London,75,ZA,1552590000,100,-33.02,27.91,66.2,3.36
54,Nome,90,US,1552594105,29,30.04,-94.42,77.0,12.75
55,Vaini,0,IN,1552594112,71,15.34,74.49,66.85,2.19
56,Dikson,80,RU,1552594112,100,73.51,80.55,4.97,18.19
57,Aklavik,75,CA,1552592400,77,68.22,-135.01,-0.41,11.41
58,Sambava,64,MG,1552594113,100,-14.27,50.17,79.54,11.81
59,Fortuna,0,ES,1552594112,58,38.18,-1.13,57.2,1.12
60,Port Hardy,90,CA,1552590000,81,50.7,-127.42,44.6,11.41
61,Lima,0,PE,1552593727,58,-12.06,-77.04,82.4,9.17
62,Bluff,20,AU,1552594113,85,-23.58,149.07,72.38,5.77
63,Arona,0,IT,1552594084,79,45.76,8.56,57.2,10.29
64,Calabozo,32,VE,1552594114,34,8.92,-67.43,96.86,14.61
65,Atuona,68,PF,1552594114,100,-9.8,-139.03,80.66,13.27
66,Nyurba,88,RU,1552594114,74,63.29,118.35,11.54,5.1
67,Bodden Town,20,KY,1552593604,66,19.28,-81.25,84.2,16.11
68,Norman Wells,75,CA,1552590000,71,65.28,-126.83,5.0,3.36
69,Murgab,0,TM,1552590000,67,37.5,61.97,57.2,2.75
70,Ushuaia,0,AR,1552590000,51,-54.81,-68.31,59.0,8.05
71,Cherskiy,36,RU,1552594114,71,68.75,161.3,-24.06,2.08
72,Barrow,20,AR,1552594115,69,-38.31,-60.23,70.54,13.27
73,Shingu,0,JP,1552594115,100,33.72,135.99,47.32,6.67
74,Hanzhong,64,CN,1552594115,83,33.08,107.03,35.57,2.08
75,San Cristobal,75,EC,1552593691,56,-0.39,-78.55,69.8,16.11
76,Nikolskoye,40,RU,1552594023,90,59.7,30.79,33.01,13.42
77,Hithadhoo,0,MV,1552594105,100,-0.6,73.08,83.27,1.19
78,Avera,40,US,1552594095,53,33.19,-82.53,78.8,10.29
79,Kudahuvadhoo,76,MV,1552594105,99,2.67,72.89,84.8,5.21
80,Port Alfred,88,ZA,1552593891,95,-33.59,26.89,66.0,5.1
81,Georgetown,75,GY,1552590000,62,6.8,-58.16,89.6,9.17
82,Cockburn Town,8,TC,1552594116,100,21.46,-71.14,77.24,17.85
83,Hambantota,24,LK,1552594117,100,6.12,81.12,79.27,11.03
84,Saldanha,0,PT,1552594117,77,41.42,-6.55,38.5,3.09
85,Alice Springs,20,AU,1552591800,23,-23.7,133.88,73.4,3.36
86,Dzhebariki-Khaya,64,RU,1552594117,79,62.22,135.8,6.05,2.86
87,Sitka,48,US,1552593690,52,37.17,-99.65,44.01,21.99
88,Mount Isa,0,AU,1552591800,21,-20.73,139.49,80.6,10.29
89,Kavieng,56,PG,1552594117,100,-2.57,150.8,78.5,6.55
90,Auki,0,NG,1552594118,27,12.18,6.51,77.42,8.01
91,Husavik,80,CA,1552593911,69,50.56,-96.99,32.0,11.99
92,Necochea,64,AR,1552594090,85,-38.55,-58.74,73.0,4.0
93,Sao Miguel do Araguaia,0,BR,1552594118,84,-13.28,-50.16,86.47,2.86
94,Carnarvon,88,ZA,1552594118,57,-30.97,22.13,67.61,6.67
95,Honiara,20,SB,1552594118,90,-9.43,159.96,78.14,3.09
96,Codrington,0,AU,1552593857,93,-28.95,153.24,68.0,3.09
97,Juba,92,EE,1552594096,86,57.82,26.93,37.99,10.29
98,Rabo de Peixe,75,PT,1552594113,67,37.8,-25.58,59.0,9.17
99,Severo-Kurilsk,48,RU,1552594119,100,50.68,156.12,25.9,4.32
100,Leningradskiy,24,RU,1552594119,89,69.38,178.42,-15.01,6.89
101,Lengshuijiang,92,CN,1552594119,92,27.66,111.45,51.5,2.53
102,Koumac,12,NC,1552594119,88,-20.56,164.28,77.6,3.87
103,Ampanihy,0,MG,1552594119,74,-24.69,44.75,70.45,11.92
104,Chokurdakh,68,RU,1552594119,49,70.62,147.9,-16.81,3.09
105,Letka,20,BA,1552590000,39,43.74,17.27,48.2,5.82
106,Guerrero Negro,0,MX,1552594012,61,27.97,-114.04,66.62,19.08
107,Haines Junction,0,CA,1552594120,74,60.75,-137.51,27.83,5.32
108,Erzincan,75,TR,1552589400,75,39.75,39.49,41.0,5.82
109,Katsuura,20,JP,1552593070,74,33.93,134.5,37.4,9.17
110,Sola,88,FI,1552594028,89,62.78,29.36,30.99,4.0
111,Sorland,20,NO,1552591200,85,67.67,12.69,32.0,8.05
112,Cidreira,0,BR,1552594121,73,-30.17,-50.22,75.85,9.24
113,Okakarara,12,NA,1552594121,63,-20.59,17.46,69.86,3.53
114,Tres Arroyos,20,AR,1552594121,69,-38.38,-60.28,70.54,13.27
115,Hofn,56,IS,1552594121,100,64.25,-15.21,36.97,19.08
116,Parauna,20,ID,1552594121,93,-3.82,122.09,67.57,1.97
117,Yellowknife,20,CA,1552593770,66,62.45,-114.38,14.0,14.99
118,Hobart,75,AU,1552594041,71,-42.88,147.33,55.4,5.82
119,San Patricio,0,PY,1552594121,68,-26.98,-56.83,79.67,3.42
120,Anapskaya,44,RU,1552591800,93,44.9,37.38,39.2,8.95
121,Jamestown,0,AU,1552594030,80,-33.21,138.6,43.31,4.43
122,Arraial do Cabo,40,BR,1552590000,79,-22.97,-42.02,89.6,17.22
123,Havoysund,75,NO,1552591200,73,71.0,24.66,26.6,14.99
124,Butaritari,76,KI,1552594122,100,3.07,172.79,80.57,10.25
125,Pisco,0,PE,1552590000,30,-13.71,-76.2,71.6,18.34
126,Esperance,40,TT,1552593613,55,10.24,-61.45,87.8,16.11
127,Jeremie,88,HT,1552594123,100,18.65,-74.12,76.97,1.19
128,Laguna,75,MX,1552588800,31,27.52,-110.01,75.2,8.05
129,Lasa,40,CY,1552593653,77,34.92,32.53,60.8,10.29
130,Aksarka,0,RU,1552594123,70,66.56,67.8,4.3,11.03
131,Sain Alto,0,MX,1552594124,20,23.58,-103.25,75.53,13.38
132,Havre-Saint-Pierre,90,CA,1552590000,97,50.23,-63.6,32.0,5.82
133,Mezhdurechensk,8,RU,1552594124,62,53.69,88.07,14.69,2.19
134,Rosetown,0,CA,1552593789,70,51.55,-107.99,37.99,4.0
135,Vestmanna,92,FO,1552593000,93,62.16,-7.17,35.6,4.43
136,Luderitz,12,NA,1552594124,90,-26.65,15.16,60.95,13.04
137,Mastic Beach,1,US,1552593958,70,40.77,-72.85,55.0,9.17
138,Worthington,90,US,1552593931,96,43.62,-95.6,33.8,33.33
139,Vilyuysk,44,RU,1552594124,74,63.75,121.63,-3.27,3.65
140,Pangnirtung,20,CA,1552590000,69,66.15,-65.72,-13.01,3.36
141,Prykolotne,64,UA,1552594125,81,50.16,37.35,28.42,10.69
142,Mehamn,0,NO,1552589400,73,71.03,27.85,26.6,24.16
143,Oum Hadjer,0,TD,1552594125,16,13.3,19.7,79.94,12.93
144,Lumphat,80,KH,1552594125,72,13.5,106.97,77.47,1.74
145,Ilulissat,75,GL,1552589400,65,69.22,-51.1,3.2,8.05
146,Darhan,12,MN,1552594125,52,49.49,105.92,29.63,6.22
147,Ribeira Grande,40,PT,1552591800,67,38.52,-28.7,60.8,12.75
148,Jalu,0,LY,1552594126,46,29.03,21.55,51.41,2.86
149,Morwell,0,AU,1552593604,92,-38.24,146.4,51.01,1.41
150,Maragogi,68,BR,1552594126,90,-9.01,-35.22,80.12,8.12
151,Tahoua,0,NE,1552594126,26,14.89,5.26,78.32,7.78
152,High Level,40,CA,1552590000,68,58.52,-117.13,26.6,11.41
153,Ponta do Sol,24,BR,1552594126,88,-20.63,-46.0,76.16,2.19
154,Bethel,75,US,1552593360,92,60.79,-161.76,28.4,13.87
155,Coihaique,40,CL,1552590000,37,-45.58,-72.07,66.2,9.17
156,Hasaki,0,JP,1552593875,100,35.73,140.83,32.0,4.7
157,Lynchburg,1,US,1552593676,49,37.41,-79.14,73.99,10.29
158,San Francisco,1,US,1552593929,25,37.78,-122.42,66.0,14.99
159,Saint George,90,GR,1552591412,87,39.45,22.34,48.99,10.29
160,Biak,76,ID,1552594130,99,-0.91,122.88,77.2,3.65
161,Bambous Virieux,20,MU,1552593844,83,-20.34,57.76,77.0,2.24
162,Gejiu,88,CN,1552594130,96,23.36,103.16,52.09,2.3
163,Bom Jesus,75,BR,1552593600,79,-5.99,-35.58,84.2,6.93
164,Batagay-Alyta,44,RU,1552594131,53,67.8,130.41,-12.31,2.98
165,Gweta,0,BW,1552594131,35,-20.21,25.26,79.04,14.5
166,Kruisfontein,92,ZA,1552594131,88,-34.0,24.73,64.6,5.99
167,Oranjemund,88,ZA,1552594131,94,-28.55,16.43,63.74,7.34
168,Abu Dhabi,0,AE,1552590000,43,24.47,54.37,73.4,5.82
169,Grindavik,75,IS,1552593695,100,63.84,-22.43,37.99,8.05
170,Kahului,20,US,1552594001,69,20.89,-156.47,77.0,12.75
171,Los Llanos de Aridane,75,ES,1552593902,77,28.66,-17.92,64.4,4.7
172,Gravdal,40,NO,1552594090,100,59.79,5.78,39.0,2.24
173,Kenora,90,CA,1552593768,92,49.76,-94.48,30.2,13.87
174,Flinders,75,AU,1552594027,88,-34.58,150.85,66.0,10.29
175,Kuytun,92,RU,1552594132,77,54.34,101.51,33.82,7.23
176,Palmer,1,US,1552594121,69,61.6,-149.11,44.01,18.34
177,Upernavik,64,GL,1552594133,100,72.79,-56.15,-0.21,2.19
178,San Vicente de Canete,20,PE,1552594133,79,-13.08,-76.38,73.24,3.87
179,Port Elizabeth,1,US,1552593812,52,39.31,-74.98,72.0,10.29
180,Oistins,40,BB,1552590000,62,13.07,-59.53,84.2,18.34
181,Kisangani,44,CD,1552594133,80,0.52,25.21,75.94,1.97
182,Bonavista,24,CA,1552593700,50,48.65,-53.11,36.0,7.0
183,Eyl,92,SO,1552594134,100,7.98,49.82,77.06,10.47
184,Byron Bay,0,AU,1552593857,88,-28.65,153.62,69.8,3.76
185,Khilok,92,RU,1552594134,85,51.36,110.46,31.25,9.91
186,Opuwo,44,NA,1552594134,78,-18.06,13.84,67.3,3.76
187,Casino,0,AU,1552593857,93,-28.86,153.05,68.0,3.09
188,Turmalina,32,BR,1552594135,40,-17.29,-42.73,89.3,2.64
189,Touros,75,BR,1552593600,79,-5.2,-35.46,84.2,6.93
190,Isangel,48,VU,1552594135,100,-19.55,169.27,80.84,6.22
191,Amapa,20,HN,1552593600,39,15.09,-87.97,95.0,13.87
192,Yaan,20,NG,1552594135,54,7.38,8.57,85.84,8.57
193,Coquimbo,75,CL,1552590000,77,-29.95,-71.34,64.4,9.17
194,Ondangwa,12,NA,1552594136,52,-17.91,15.98,76.52,4.43
195,Aykhal,80,RU,1552594136,79,65.95,111.51,8.84,4.43
196,Khatanga,48,RU,1552594136,68,71.98,102.47,4.61,9.8
197,Khuzdar,0,PK,1552594136,78,27.8,66.62,37.1,2.19
198,Camacha,40,PT,1552591800,63,33.08,-16.33,60.8,12.75
199,Sal Rei,0,CV,1552594136,82,16.18,-22.92,73.82,12.15
200,Kaitangata,0,NZ,1552594065,93,-46.28,169.85,46.99,5.01
201,Imbituba,40,BR,1552593600,88,-28.24,-48.67,77.0,8.05
202,Semirom,24,IR,1552594137,79,31.41,51.57,19.73,2.42
203,Dauriya,24,RU,1552594137,64,49.93,116.85,1.6,5.66
204,Sao Filipe,0,CV,1552594137,78,14.9,-24.5,75.71,11.36
205,Buchanan,0,LR,1552594134,89,5.88,-10.05,83.77,6.89
206,Zhigansk,0,RU,1552594137,59,66.77,123.37,-12.54,2.42
207,Muyezerskiy,80,RU,1552594138,79,63.93,31.65,26.8,7.9
208,Sioux Lookout,90,CA,1552592640,84,50.1,-91.92,33.8,10.29
209,Marion,90,US,1552593910,38,35.21,-90.2,73.99,28.86
210,Margate,75,AU,1552594094,71,-43.03,147.26,55.4,5.82
211,Port Hedland,64,AU,1552591800,43,-20.31,118.58,89.6,12.75
212,Ust-Kut,88,RU,1552594139,82,56.78,105.75,27.92,6.67
213,Emerald,90,AU,1552593802,88,-23.53,148.16,77.0,8.05
214,Kozhva,0,RU,1552594139,63,65.11,57.05,0.29,1.97
215,Tarabuco,80,BO,1552594140,85,-19.18,-64.92,61.99,3.42
216,Huayucachi,92,PE,1552594140,94,-12.13,-75.23,46.46,2.08
217,Syasstroy,76,RU,1552594140,88,60.14,32.56,32.29,9.35
218,Victoria,75,BN,1552591800,88,5.28,115.24,78.8,3.36
219,Port Macquarie,90,AU,1552593845,94,-31.43,152.91,69.8,8.05
220,Geraldton,90,CA,1552591020,93,49.72,-86.95,39.2,9.17
221,Guiren,75,TW,1552593898,77,22.97,120.29,73.99,10.29
222,Nagorsk,0,RU,1552594141,77,59.32,50.8,12.53,5.88
223,Manggar,44,ID,1552594141,100,-2.88,108.27,73.6,3.65
224,Whitehorse,75,CA,1552593770,74,60.72,-135.06,36.0,10.29
225,Svetlaya,32,RU,1552594142,100,46.54,138.33,24.55,1.41
226,Trofors,75,NO,1552593000,94,65.54,13.39,37.4,3.36
227,Wanlaweyn,0,SO,1552594142,72,2.62,44.89,78.59,10.8
228,Ewa Beach,40,US,1552593938,54,21.32,-158.01,80.6,12.75
229,Corn Island,44,NI,1552594142,97,12.17,-83.04,81.25,12.82
230,Angoram,76,PG,1552594142,100,-4.06,144.07,73.69,2.08
231,Caravelas,0,BR,1552594143,100,-17.73,-39.27,83.77,18.52
232,Hirara,68,JP,1552594143,100,24.8,125.28,70.22,12.26
233,Salmas,90,IR,1552590000,100,38.2,44.77,33.8,2.24
234,Katobu,32,ID,1552594143,93,-4.94,122.53,82.24,9.46
235,Rome,0,IT,1552594084,81,41.89,12.48,53.6,4.7
236,Iqaluit,5,CA,1552593767,70,63.75,-68.52,-2.01,2.24
237,Bubaque,0,GW,1552594144,90,11.28,-15.83,80.39,9.8
238,Preobrazheniye,64,RU,1552594144,74,42.9,133.91,14.33,1.74
239,Port Augusta,0,AU,1552593528,77,-32.49,137.76,64.4,11.41
240,Harnosand,90,SE,1552593919,94,62.63,17.94,34.0,1.12
241,Candolim,0,IN,1552590000,54,15.52,73.76,78.8,9.17
242,Sangar,0,RU,1552594144,70,63.92,127.47,-6.19,2.53
243,Luocheng,88,CN,1552594145,88,28.29,114.55,50.96,2.75
244,Rio Grande,40,BR,1552593600,61,-32.03,-52.1,78.8,3.36
245,Uvinza,8,TZ,1552594145,93,-5.1,30.39,62.89,2.19
246,San Jeronimo,40,PE,1552590000,54,-13.65,-73.37,59.0,11.41
247,Mookane,64,BW,1552594145,42,-23.68,26.66,80.57,6.44
248,Tomohon,20,ID,1552591800,94,1.33,124.84,75.2,1.63
249,Kavaratti,0,IN,1552594145,100,10.57,72.64,83.27,7.78
250,San Quintin,48,PH,1552594146,84,17.54,120.52,69.37,4.54
251,Montes Claros,40,BR,1552590000,45,-16.73,-43.87,84.2,11.41
252,Ust-Kuyga,64,RU,1552594146,62,70.0,135.55,-14.11,3.09
253,Lola,20,GN,1552594146,28,7.8,-8.53,80.93,6.44
254,Fuyu,0,CN,1552594146,52,47.79,124.46,17.89,10.02
255,Thinadhoo,0,MV,1552593976,100,0.53,72.93,83.5,2.42
256,Nuevo Progreso,90,US,1552594074,49,26.05,-97.95,77.0,17.22
257,Ghanzi,0,BW,1552594147,41,-21.7,21.65,72.83,7.78
258,Atambua,92,ID,1552594147,100,-9.11,124.89,75.85,3.2
259,Ancud,20,CL,1552590000,59,-41.87,-73.83,62.6,8.05
260,Marsh Harbour,0,BS,1552593921,100,26.54,-77.06,74.32,16.28
261,Leesburg,1,US,1552593968,44,39.12,-77.56,75.2,19.46
262,Kuminskiy,92,RU,1552594147,96,58.67,66.57,29.81,11.59
263,Erenhot,0,CN,1552594147,61,43.65,111.97,9.83,3.87
264,Inongo,44,CD,1552594148,90,-1.93,18.29,79.0,3.31
265,Abilene,1,US,1552593939,26,32.45,-99.73,62.01,14.99
266,Buin,0,CL,1552593600,32,-33.73,-70.74,82.4,19.46
267,Udachnyy,56,RU,1552594148,82,66.42,112.4,10.15,4.65
268,Dingle,0,PH,1552594148,86,11.0,122.67,73.15,11.14
269,Soderhamn,32,SE,1552594027,92,61.3,17.06,32.0,3.65
270,Valentin Gomez Farias,5,MX,1552593615,13,24.05,-104.7,77.0,8.05
271,Rennes,90,FR,1552594025,100,48.11,-1.68,55.0,13.87
272,Santa Marinella,0,IT,1552593914,71,42.04,11.87,53.6,13.87
273,High Rock,75,BS,1552590000,57,26.63,-78.28,80.6,12.75
274,Broome,0,GB,1552594087,66,52.47,1.45,48.2,19.46
275,Takhli,0,TH,1552593672,82,15.26,100.34,82.0,6.78
276,Clyde River,75,CA,1552590000,84,70.47,-68.59,-2.21,9.17
277,Najran,0,SA,1552590000,26,17.54,44.22,82.4,11.41
278,Provideniya,44,RU,1552594150,100,64.42,-173.23,24.05,28.92
279,Kiama,75,AU,1552594027,88,-34.67,150.86,66.0,10.29
280,Cutro,20,IT,1552589400,70,39.04,16.98,53.6,13.87
281,Kibaya,40,RW,1552593774,72,-2.2,30.56,68.0,3.36
282,Souillac,75,FR,1552593977,87,45.6,-0.6,52.0,18.34
283,Shieli,68,KZ,1552594150,55,44.18,66.74,49.75,10.02
284,Itarema,76,BR,1552594150,91,-2.92,-39.92,79.9,3.98
285,Alibag,0,IN,1552591800,65,18.64,72.88,77.0,4.7
286,Kununurra,40,AU,1552591800,83,-15.77,128.74,80.6,8.05
287,Alta Floresta,40,BR,1552590000,88,-9.87,-56.08,78.8,1.12
288,Vadso,75,NO,1552593000,79,70.07,29.75,24.8,14.99
289,Burlington,90,CA,1552593989,81,43.32,-79.8,50.0,3.36
290,Vestmannaeyjar,92,IS,1552594151,100,63.44,-20.27,35.44,9.46
291,Port Lincoln,44,AU,1552594152,100,-34.72,135.86,59.29,7.67
292,Torbay,75,CA,1552593730,51,47.66,-52.73,36.0,10.29
293,Nicoya,20,CR,1552590000,30,10.15,-85.45,96.8,10.29
294,Batie,90,FR,1552594044,93,45.06,5.82,46.0,14.99
295,Naze,56,NG,1552594152,88,5.43,7.07,77.47,3.2
296,Bay Roberts,75,CA,1552594106,51,47.58,-53.28,36.0,10.29
297,Portland,75,US,1552593427,53,45.52,-122.67,55.0,3.2
298,Maniitsoq,0,GL,1552594152,90,65.42,-52.9,1.15,7.0
299,Tongliao,0,CN,1552594152,38,43.61,122.27,20.63,10.47
300,Brigantine,1,US,1552594141,45,39.41,-74.36,71.01,10.29
301,Shubarshi,0,KZ,1552594153,81,48.59,57.19,20.05,10.25
302,Pedernales,80,EC,1552594153,100,0.07,-80.05,77.33,6.11
303,Tucuman,8,PE,1552594122,65,-17.17,-70.89,70.76,3.98
304,Dillon,20,US,1552593910,63,45.22,-112.64,32.0,10.29
305,Westport,90,IE,1552594092,100,53.8,-9.52,51.01,6.93
306,Ornskoldsvik,90,SE,1552591200,96,63.29,18.72,33.8,4.7
307,Paamiut,0,GL,1552594154,100,61.99,-49.67,21.26,29.15
308,Cabo San Lucas,5,MX,1552593943,56,22.89,-109.91,78.01,4.7
309,Pevek,24,RU,1552594154,78,69.7,170.27,-25.99,1.41
310,Middelburg,0,ZA,1552594154,67,-25.77,29.46,61.49,10.47
311,Santa Marta,40,CO,1552594008,62,11.24,-74.21,87.8,4.7
312,Sivas,75,TR,1552589400,86,39.75,37.01,37.4,8.05
313,Guhagar,0,IN,1552594155,88,17.48,73.19,74.32,11.81
314,Chicama,20,PE,1552590000,78,-7.84,-79.15,77.0,8.05
315,Yar-Sale,0,RU,1552594155,68,66.83,70.83,4.97,13.49
316,Bowen,88,AU,1552594106,94,-20.01,148.25,77.0,3.36
317,Anlu,80,CN,1552594066,71,31.26,113.68,45.29,3.76
318,Comodoro Rivadavia,75,AR,1552590000,93,-45.87,-67.48,59.0,8.05
319,Daru,48,SL,1552594156,64,7.99,-10.85,82.42,6.33
320,Poum,88,MK,1552594156,95,41.28,20.71,30.8,1.07
321,Airai,64,TL,1552594156,91,-8.93,125.41,68.47,1.63
322,Pangody,0,RU,1552594156,71,65.85,74.49,3.8,11.7
323,Victoria,75,BN,1552591800,88,5.28,115.24,78.8,3.36
324,Kushima,80,JP,1552594156,100,31.5,131.29,43.09,4.43
325,Jipijapa,75,EC,1552590000,78,-1.35,-80.58,82.4,5.82
326,Monterey,1,US,1552593906,41,36.6,-121.89,64.0,8.05
327,Saint Anthony,1,US,1552593915,54,43.97,-111.68,39.0,4.7
328,Doha,0,QA,1552591800,68,25.29,51.53,69.8,14.99
329,Longyearbyen,40,NO,1552593000,65,78.22,15.63,3.2,3.36
330,Thompson,90,CA,1552590000,62,55.74,-97.86,24.8,5.82
331,Luanda,75,AO,1552590000,65,-8.83,13.24,82.4,13.87
332,Bandarbeyla,88,SO,1552594157,100,9.49,50.81,77.69,7.45
333,Cardenas,75,MX,1552593616,31,27.62,-110.24,75.99,8.05
334,Strezhevoy,75,RU,1552591800,92,60.73,77.6,28.4,8.95
335,Requena,0,ES,1552594151,67,39.49,-1.1,57.99,3.36
336,Dalvik,75,SE,1552593666,93,57.79,14.13,39.0,2.24
337,San Joaquin,0,PH,1552594158,86,10.59,122.14,73.15,11.14
338,Evensk,0,RU,1552594158,100,61.92,159.24,-4.62,5.21
339,Blythe,1,US,1552593733,13,33.61,-114.59,64.0,20.8
340,Koslan,0,RU,1552594159,71,63.46,48.9,6.41,3.53
341,Mao,20,DO,1552593943,35,19.55,-71.08,89.6,11.41
342,Daudnagar,68,IN,1552594159,77,25.03,84.4,68.78,9.69
343,Salalah,75,OM,1552589400,69,17.01,54.1,77.0,5.82
344,Dunmore East,88,IE,1552594058,87,52.15,-6.99,54.0,8.99
345,Cabedelo,20,BR,1552590000,70,-6.97,-34.84,86.0,14.99
346,Hun,88,BE,1552594151,81,50.34,4.87,48.2,10.29
347,Alihe,36,CN,1552594160,65,50.57,123.73,11.54,4.21
348,Beloha,0,MG,1552594160,78,-25.17,45.06,71.93,12.48
349,Pilar,20,AR,1552594110,57,-34.46,-58.91,81.0,4.7
350,Ishigaki,56,JP,1552594160,100,24.34,124.16,69.23,20.31
351,Barguzin,88,RU,1552594160,91,53.62,109.63,24.68,3.87
352,Gizo,40,IL,1552594033,82,31.8,34.94,60.8,16.11
353,Waitara,68,NZ,1552594066,96,-39.0,174.24,66.99,1.01
354,Koulikoro,0,ML,1552591800,12,12.86,-7.56,87.8,5.82
355,Turukhansk,56,RU,1552594161,97,65.8,87.96,12.04,6.11
356,Miraflores,68,CO,1552594162,86,5.2,-73.14,60.14,2.19
357,Dubbo,0,AU,1552591800,86,-32.25,148.6,53.6,3.36
358,Pleasanton,5,US,1552594004,31,37.66,-121.87,66.0,6.93
359,North Vernon,75,US,1552594142,77,39.01,-85.62,70.0,19.46
360,Kamenka,0,RU,1552594163,61,53.19,44.05,6.95,3.09
361,Goderich,100,CA,1552594158,81,43.74,-81.71,54.0,11.99
362,Beringovskiy,88,RU,1552594163,88,63.05,179.32,9.47,28.92
363,Saskylakh,12,RU,1552594163,57,71.97,114.09,-20.01,10.47
364,Lompoc,1,US,1552594032,31,34.64,-120.46,68.0,3.36
365,Tamandare,32,BR,1552594163,66,-8.28,-70.75,88.0,3.76
366,Glogow,92,PL,1552594069,82,51.66,16.08,45.0,14.27
367,Chuy,92,UY,1552594120,84,-33.69,-53.46,72.52,13.27
368,Komsomolskiy,0,RU,1552594164,78,67.55,63.78,6.37,8.79
369,Vila Franca do Campo,75,PT,1552594113,67,37.72,-25.43,59.0,9.17
370,Tiksi,0,RU,1552594164,65,71.64,128.87,-22.62,2.75
371,Imaculada,56,BR,1552594164,92,-7.39,-37.51,75.17,1.52
372,Rio Gallegos,40,AR,1552590000,52,-51.62,-69.22,64.4,6.93
373,Hakui,75,JP,1552593756,93,36.89,136.78,39.99,4.7
374,Kidal,8,ML,1552594164,30,18.44,1.41,79.49,6.67
375,Shahabad,76,IN,1552594165,25,17.12,76.94,85.57,5.55
376,Conakry,0,GN,1552594165,100,9.52,-13.7,80.66,8.23
377,Yulara,76,AU,1552590000,44,-25.24,130.99,78.8,3.36
378,Northam,75,GB,1552594021,93,51.04,-4.21,54.0,11.41
379,Fairbanks,40,US,1552593931,50,64.84,-147.72,41.0,6.93
380,Pierre,75,US,1552594101,74,44.37,-100.35,35.01,36.91
381,Acajutla,0,SV,1552593906,72,13.59,-89.83,82.99,1.99
382,Lethem,0,GY,1552594165,34,3.38,-59.8,96.37,13.71
383,Asyut,0,EG,1552590000,54,27.18,31.19,59.0,11.41
384,Palu,80,ID,1552594166,94,-0.9,119.87,63.2,1.86
385,Constantine,20,DZ,1552591800,81,36.36,6.61,42.8,3.36
386,Kathmandu,20,NP,1552593000,66,27.71,85.32,55.4,4.7
387,La Romana,75,DO,1552590000,70,18.43,-68.97,84.2,13.87
388,Kapit,88,MY,1552594166,98,2.02,112.94,71.84,2.08
389,Ulladulla,75,AU,1552593739,88,-35.36,150.48,64.0,10.29
390,Nchelenge,48,ZM,1552594167,90,-9.35,28.74,70.72,1.97
391,College,40,US,1552593931,50,64.86,-147.8,41.0,6.93
392,Ciudad Bolivar,56,VE,1552594167,28,8.12,-63.55,95.24,13.49
393,Midland,0,US,1552593604,29,32.0,-102.08,62.6,5.82
394,Launceston,0,AU,1552593965,100,-41.43,147.14,46.99,5.82
395,Moindou,48,NC,1552591800,94,-21.69,165.68,71.6,2.24
396,Trincomalee,12,LK,1552594167,89,8.58,81.23,73.37,6.44
397,Harper,1,US,1552594132,53,30.3,-99.24,73.0,12.75
398,Fare,64,PF,1552594168,100,-16.7,-151.02,82.1,11.25
399,Apatity,68,RU,1552594168,86,67.57,33.4,16.58,4.76
400,Umm Lajj,0,SA,1552594168,100,25.02,37.27,58.88,6.67
401,Nanortalik,0,GL,1552594042,100,60.14,-45.24,22.43,32.06
402,Port Blair,0,IN,1552594168,100,11.67,92.75,80.3,2.42
403,Sao Paulo de Olivenca,8,BR,1552594168,56,-3.38,-68.87,90.79,2.86
404,Kutum,8,SD,1552594168,25,14.2,24.66,64.15,9.91
405,Melioratorov,90,RU,1552591800,93,57.21,65.61,35.6,11.18
406,Aden,8,YE,1552593969,95,12.79,45.03,79.45,17.63
407,Marawi,24,PH,1552593717,88,8.0,124.29,73.99,4.0
408,Monteagudo,75,BO,1552590000,73,-19.8,-63.96,77.0,2.98
409,Rome,0,IT,1552594144,81,41.89,12.48,53.6,4.7
410,Ouadda,48,CF,1552594169,28,8.07,22.4,86.92,10.47
411,Xai-Xai,88,MZ,1552594169,100,-25.04,33.64,77.74,15.61
412,Freeport,75,BS,1552590000,57,26.54,-78.7,80.6,12.75
413,Sur,12,OM,1552594170,100,22.57,59.53,68.96,12.03
414,Egvekinot,76,RU,1552594170,76,66.32,-179.17,-5.02,7.0
415,Jacareacanga,40,BR,1552590000,59,-6.22,-57.76,91.4,4.7
416,Mount Gambier,90,AU,1552593360,100,-37.83,140.78,55.4,8.05
417,Churapcha,76,RU,1552594170,76,62.0,132.43,6.68,5.1
418,Puerto Escondido,5,MX,1552588800,70,15.86,-97.07,84.2,14.99
419,Tuatapere,0,NZ,1552593609,92,-46.13,167.69,43.0,1.01
420,Snasa,75,NO,1552591200,84,64.25,12.38,32.0,4.7
421,Vanavara,92,RU,1552594171,81,60.35,102.28,31.16,8.9
422,Villamontes,75,BO,1552590000,65,-21.26,-63.47,82.4,3.42
423,San Carlos,24,VE,1552594052,56,9.66,-68.59,88.58,6.67
424,Bayji,68,IQ,1552594172,96,34.93,43.49,51.05,3.2
425,Xiongzhou,0,CN,1552594167,76,32.34,118.83,55.99,6.71
426,Sandakan,75,MY,1552590000,94,5.84,118.12,73.4,4.65
427,Rakoshyno,88,UA,1552593980,68,48.47,22.6,44.01,3.0
428,Bukachacha,48,RU,1552594173,69,52.99,116.91,5.06,4.54
429,Ponta Delgada,75,PT,1552593874,67,37.73,-25.67,59.0,9.17
430,Okhotsk,76,RU,1552594174,99,59.36,143.24,7.27,3.65
431,Inhambane,92,MZ,1552594174,89,-23.87,35.38,80.66,17.29
432,Mayo,75,CA,1552590000,51,63.59,-135.9,35.6,9.17
433,Paka,0,HR,1552591800,60,45.29,18.06,39.2,6.93
434,Tocopilla,0,CL,1552594175,87,-22.09,-70.2,69.64,5.66
435,Yanam,0,IN,1552594176,81,16.73,82.22,72.47,2.98
436,Chapais,90,CA,1552590960,74,49.78,-74.86,35.6,14.99
437,Danilov,0,RU,1552591800,58,58.19,40.17,24.8,6.71
438,Rongcheng,32,CN,1552594176,77,37.16,122.42,29.36,8.34
439,Seydi,0,NE,1552594177,25,13.34,7.75,78.77,8.68
440,Klaksvik,92,FO,1552593000,93,62.23,-6.59,35.6,2.53
441,Manavalakurichi,20,IN,1552591800,74,8.13,77.3,84.2,3.36
442,Pacific Grove,1,US,1552594105,41,36.62,-121.92,64.99,8.05
443,Betera,0,ES,1552594151,67,39.58,-0.45,57.99,3.36
444,Vinh,80,VN,1552594177,98,18.67,105.69,72.83,8.57
445,Bonga,56,ET,1552594177,86,7.26,36.25,59.78,1.97
446,Bundaberg,75,AU,1552593909,88,-24.87,152.35,79.0,3.36
447,Chico,1,US,1552593929,36,39.73,-121.84,64.0,13.87
448,Inyonga,12,TZ,1552594178,92,-6.72,32.06,64.01,2.98
449,Portsmouth,0,GB,1552594160,71,50.8,-1.08,53.6,8.05
450,Honningsvag,40,NO,1552589400,73,70.98,25.97,26.6,18.34
451,Monster,20,NL,1552594146,70,52.03,4.17,48.99,14.99
452,Madera,0,US,1552594172,41,36.96,-120.06,64.0,5.82
453,Matabungkay,12,PH,1552594178,100,13.95,120.62,78.86,9.01
454,Klyuchi,0,RU,1552594179,88,52.25,79.17,27.52,10.36
455,Macau,64,BR,1552594117,96,-5.11,-36.64,77.51,2.53
456,Mazagao,75,BR,1552593600,79,-0.12,-51.29,84.2,13.87
457,Killybegs,75,IE,1552594024,93,54.63,-8.45,44.6,14.99
458,Russell,40,AR,1552590000,37,-33.01,-68.8,84.2,6.93
459,Chahuites,44,MX,1552594180,65,16.29,-94.19,85.43,8.68
460,Banda Aceh,20,ID,1552594180,98,5.56,95.32,73.28,2.3
461,Iralaya,40,HN,1552590000,70,15.0,-83.23,84.2,5.82
462,Ola,0,RU,1552594180,100,59.58,151.3,2.63,5.44
463,Parabel,76,RU,1552594180,95,58.71,81.5,33.32,6.22
464,Padilla,75,CO,1552590000,65,3.23,-76.31,80.6,6.93
465,Nauta,12,PE,1552594180,92,-4.51,-73.58,80.62,8.68
466,Kawalu,76,ID,1552594181,97,-7.38,108.21,68.6,2.08
467,Saurimo,12,AO,1552594181,86,-9.66,20.4,70.09,2.64
468,Saint-Augustin,75,FR,1552594157,87,44.83,-0.61,52.0,14.99
469,Inta,0,RU,1552594181,64,66.04,60.13,3.22,2.3
470,Kantang,0,TH,1552594181,99,7.42,99.52,79.54,7.34
471,Taylorville,75,US,1552594112,58,39.55,-89.29,59.0,34.45
472,Mogadishu,0,SO,1552594182,97,2.04,45.34,81.92,19.3
473,Soe,92,EE,1552594144,86,57.91,26.05,37.99,10.29
474,Iwanai,88,JP,1552594182,100,42.97,140.51,31.97,3.98
475,Fereydunshahr,56,IR,1552593992,83,32.94,50.12,19.19,2.3
476,Actopan,0,MX,1552594182,32,20.27,-98.94,81.07,5.66
477,Antropovo,20,RU,1552594174,68,55.25,37.65,32.0,13.42
478,Tumut,44,AU,1552594182,90,-35.3,148.22,54.34,2.53
479,Khandagayty,0,MN,1552594182,63,50.73,92.07,13.52,3.65
480,Ahipara,80,NZ,1552593750,100,-35.17,173.16,64.99,7.23
481,Lensk,80,RU,1552594183,82,60.71,114.91,20.18,2.75
482,Belaya Gora,56,RU,1552594183,46,68.54,146.19,-15.87,2.64
483,Norden,75,DE,1552594129,81,53.59,7.21,46.0,21.92
484,Shubarkuduk,0,KZ,1552594183,84,49.15,56.49,21.53,12.71
485,Zhanaozen,12,KZ,1552594183,51,43.35,52.85,39.17,14.27
486,Puerto Narino,40,CO,1552593600,56,-3.77,-70.38,93.2,6.93
487,Sistranda,75,NO,1552594170,100,63.73,8.83,37.99,5.82
488,Hornepayne,80,CA,1552594184,97,49.22,-84.78,45.02,9.24
489,Taseyevo,80,RU,1552594184,91,57.22,94.9,31.88,5.21
490,Swift Current,75,CA,1552592460,80,50.29,-107.8,30.2,18.34
491,Xuddur,0,SO,1552594184,43,4.12,43.89,76.52,9.57
492,Marsa Matruh,0,EG,1552590000,93,31.35,27.25,53.6,3.36
493,Kirakira,0,SB,1552594184,98,-10.46,161.92,84.4,5.66
494,Vire,90,FR,1552593612,93,48.84,-0.89,55.0,21.92
495,Flin Flon,75,CA,1552590000,58,54.77,-101.88,30.2,11.41
496,Alenquer,75,BR,1552590000,83,-1.95,-54.74,84.2,3.36
497,Kingaroy,92,AU,1552590000,100,-26.54,151.84,64.4,6.67
498,Longjiang,32,CN,1552594185,42,47.33,123.18,22.97,9.91
499,Merauke,48,ID,1552594185,100,-8.49,140.4,77.06,11.03
500,Jumla,92,NP,1552594186,100,29.28,82.18,26.84,1.86
501,Cayenne,92,GF,1552591800,83,4.94,-52.33,80.6,6.93
502,Vardo,1,US,1552593932,31,39.62,-77.74,75.99,13.87
503,Seoul,75,KR,1552593000,86,37.57,126.98,41.0,1.12
504,Qaqortoq,75,GL,1552589400,73,60.72,-46.03,21.2,8.05
505,Tamiahua,20,MX,1552594186,87,21.28,-97.45,79.9,6.44
506,Petropavlovsk-Kamchatskiy,8,RU,1552591800,78,53.05,158.65,10.4,6.71
507,Aswan,0,EG,1552594087,60,24.09,32.9,52.9,2.75
508,Muriwai Beach,92,NZ,1552594096,93,-36.82,174.45,71.01,3.36
509,Vila do Maio,0,CV,1552594187,87,15.13,-23.22,74.36,11.81
510,Rohnert Park,1,US,1552594065,36,38.34,-122.7,69.01,4.21
511,Jardim,56,BR,1552594187,91,-21.48,-56.15,79.04,3.31
512,Herat,0,AF,1552590000,30,34.35,62.22,59.0,10.29
513,Zaplavnoye,0,RU,1552591800,74,48.7,45.02,30.2,11.18
514,Santa Ana,75,SV,1552593906,43,13.99,-89.56,87.8,10.29
515,Humberto de Campos,64,BR,1552594189,98,-2.6,-43.46,80.84,7.45
516,Kurumkan,68,RU,1552594189,94,54.33,110.32,12.35,1.74
517,Polunochnoye,92,RU,1552594189,80,60.87,60.43,22.61,12.03
518,Sao Jose da Coroa Grande,68,BR,1552594189,90,-8.9,-35.15,80.12,8.12
519,Kampot,20,KH,1552591800,94,10.62,104.18,77.0,2.24
520,Tucumcari,90,US,1552593618,34,35.17,-103.73,48.2,13.87
521,Shamsabad,0,IN,1552594189,85,27.02,78.12,60.05,4.99
522,Madang,68,PG,1552594189,100,-5.21,145.81,73.19,4.54
523,Muisne,40,EC,1552590000,83,0.61,-80.02,82.4,6.93
524,Lufilufi,75,WS,1552590000,94,-13.87,-171.6,77.0,4.7
525,Pontianak,68,ID,1552594190,99,-0.02,109.34,76.88,3.42
526,Talaya,0,RU,1552593925,69,55.79,84.89,35.6,8.95
527,Georgiyevka,56,RU,1552594190,88,52.25,40.45,23.74,10.13
528,Coruripe,80,BR,1552594190,100,-10.12,-36.18,81.2,10.92
529,Alofi,68,NU,1552590000,88,-19.06,-169.92,77.0,5.82
530,Malanje,48,AO,1552594191,95,-9.54,16.35,67.84,3.42
531,Ucluelet,90,CA,1552593440,93,48.94,-125.55,43.0,10.29
532,Ostrovnoy,0,RU,1552594191,84,68.05,39.51,17.66,19.98
533,Matamoros,90,US,1552594116,88,25.87,-97.51,77.0,16.11
534,Constitucion,5,MX,1552593615,13,23.99,-104.67,77.0,8.05
535,Shelburne,40,CA,1552593961,81,44.08,-80.2,45.0,10.29
536,Careiro da Varzea,40,BR,1552593600,62,-3.2,-59.81,89.6,5.82
537,Do Gonbadan,75,IR,1552590000,47,30.36,50.8,59.0,11.41
538,Sharjah,0,AE,1552592654,25,25.36,55.39,79.0,9.17
539,Huarmey,8,PE,1552594191,52,-10.07,-78.15,79.4,3.42
540,Marfino,40,RU,1552594174,89,56.07,37.56,32.0,8.95
541,Chernyshevsk,48,RU,1552594192,69,52.51,117.01,5.06,4.54
542,Serra Talhada,64,BR,1552594192,87,-7.99,-38.29,75.98,3.09
543,Bemidji,90,US,1552594162,94,47.48,-94.89,34.0,16.11
544,Kimbe,92,PG,1552594192,100,-5.56,150.15,75.17,2.53
545,Mago,64,RU,1552594193,83,53.27,140.15,14.33,2.08
546,Puerto Rico,0,PY,1552594193,74,-26.82,-55.03,80.03,2.19
547,Fort Nelson,75,CA,1552590000,54,58.81,-122.69,28.4,3.2
548,Manzanillo,12,CU,1552594193,91,20.34,-77.12,82.46,5.66
549,Vilya,0,RU,1552594193,78,55.25,42.21,14.29,8.23
550,Mughal Sarai,40,IN,1552591800,68,25.28,83.13,71.6,7.9
551,Hamilton,90,CA,1552594105,81,43.26,-79.87,50.0,3.36
552,Qandala,0,SO,1552594195,83,11.47,49.87,68.69,3.76
553,Jaisalmer,0,IN,1552594054,83,26.91,70.91,54.02,3.31
554,Pontes e Lacerda,0,BR,1552594195,72,-15.23,-59.33,87.41,3.42
555,Labytnangi,0,RU,1552594195,74,66.66,66.39,5.74,9.91
